{
  "users": [
    {
      "id": "b897",
      "name": "Yoandres La cruz",
      "email": "ylcruz.dev@gmail.com",
      "password": "ef797c8118f02dfb649607dd5d3f8c7623048c9c063d532cc95c5ed7a898a64f"
    },
    {
      "id": "b097",
      "name": "Juan Carlos Gil",
      "email": "juancarlos@gmail.com",
      "password": "ef797c8118f02dfb649607dd5d3f8c7623048c9c063d532cc95c5ed7a898a64f"
    },
    {
      "id": "ecf8",
      "name": "patino",
      "email": "patino@gmail.com",
      "password": "ef797c8118f02dfb649607dd5d3f8c7623048c9c063d532cc95c5ed7a898a64f"
    },
    {
      "id": "5f34",
      "name": "jorge",
      "email": "j@gmail.com",
      "password": "ef797c8118f02dfb649607dd5d3f8c7623048c9c063d532cc95c5ed7a898a64f"
    },
    {
      "id": "ea2b",
      "name": "santi",
      "email": "s@gmail.com",
      "password": "8a63c5ea1319f87f2201af349057221ff0ebd9e065f2a75fb72be7d559ef033c"
    },
    {
      "id": "1681",
      "name": "pepe",
      "email": "pepe@pep.es",
      "password": "ef797c8118f02dfb649607dd5d3f8c7623048c9c063d532cc95c5ed7a898a64f"
    },
    {
      "id": "c296",
      "name": "SSSSS",
      "email": "qq@gmail.com",
      "password": "ef797c8118f02dfb649607dd5d3f8c7623048c9c063d532cc95c5ed7a898a64f"
    },
    {
      "id": "8dba",
      "name": "SSAA",
      "email": "sQ@gmail.com",
      "password": "ef797c8118f02dfb649607dd5d3f8c7623048c9c063d532cc95c5ed7a898a64f"
    }
  ],
  "plots": [
    {
      "name": "Txakoli Eguzkibegiko",
      "latitude": 43.2851,
      "longitude": -2.3504,
      "denomination": "Getaria",
      "userId": "b897",
      "id": "p001"
    },
    {
      "id": "p002",
      "userId": "b897",
      "name": "Lagrein Sampedro",
      "latitude": 43.3392,
      "longitude": -2.9853,
      "denomination": "Bizkaia"
    },
    {
      "id": "p003",
      "userId": "b097",
      "name": "Viña Monticello",
      "latitude": 42.8465,
      "longitude": -2.6724,
      "denomination": "Alava"
    },
    {
      "id": "p004",
      "userId": "b097",
      "name": "Baserrikoa",
      "latitude": 43.2912,
      "longitude": -2.3456,
      "denomination": "Getaria"
    },
    {
      "id": "p005",
      "userId": "b097",
      "name": "Maitenea",
      "latitude": 43.3456,
      "longitude": -2.9901,
      "denomination": "Bizkaia"
    },
    {
      "id": "fce5",
      "name": "nueva parcela",
      "latitude": 42.1234,
      "longitude": -2.1234,
      "denomination": "Bizkaia",
      "userId": "b097"
    },
    {
      "id": "92cf",
      "name": "monte everest",
      "latitude": 27.9881,
      "longitude": 86.925,
      "denomination": "Bizkaia",
      "userId": "ea2b"
    },
    {
      "id": "528e",
      "name": "Sierra Nevada",
      "latitude": 37.095,
      "longitude": -3.324,
      "denomination": "Getaria",
      "userId": "ea2b"
    },
    {
      "id": "b1c5",
      "name": "Chamonix (Alpes Franceses):",
      "latitude": 45.9237,
      "longitude": 6.8694,
      "denomination": "Bizkaia",
      "userId": "ea2b"
    },
    {
      "id": "4882",
      "name": "Monte Everest",
      "latitude": 27.9881,
      "longitude": 86.925,
      "denomination": "Getaria",
      "userId": "8dba"
    },
    {
      "id": "1069",
      "name": "Sierra Nevada",
      "latitude": 37.095,
      "longitude": -3.324,
      "denomination": "Alava",
      "userId": "8dba"
    }
  ]
}