{
  "users": [
    {
      "id": "b897",
      "name": "Yoandres La cruz",
      "email": "ylcruz.dev@gmail.com",
      "password": "ef797ca8118f02dfb649607dd5d3f8c7623048c9c063d532cc95c5ed7a898a64f"
    },
    {
      "id": "9097",
      "name": "Juan Carlos Gil",
      "email": "juancarlos@gmail.com",
      "password": "ef797c8118f02dfb649607dd5d3f8c7623048c9c063d532cc95c5ed7a898a64f"
    }
  ],
  "plots": [
    {
      "name": "Txakoli Eguzkibegiko",
      "latitude": 43.2851,
      "longitude": -2.3504,
      "denomination": "Getaria",
      "userId": "b897",
      "id": "p001"
    },
    {
      "id": "p002",
      "userId": "b897",
      "name": "Lagrein Sampedro",
      "latitude": 43.3392,
      "longitude": -2.9853,
      "denomination": "Bizkaia"
    },
    {
      "id": "p003",
      "userId": "9097",
      "name": "Viña Monticello",
      "latitude": 42.8465,
      "longitude": -2.6724,
      "denomination": "Alava"
    },
    {
      "id": "p004",
      "userId": "9097",
      "name": "Baserrikoa",
      "latitude": 43.2912,
      "longitude": -2.3456,
      "denomination": "Getaria"
    },
    {
      "id": "p005",
      "userId": "9097",
      "name": "Maitenea",
      "latitude": 43.3456,
      "longitude": -2.9901,
      "denomination": "Bizkaia"
    }
  ]
}